{"type":"FeatureCollection","features":[{"type":"Feature","properties":{"title":"Math Coffee & Donut Shop"},"geometry":{"type":"Point","coordinates":[-80.54359926,43.4719005]}},{"type":"Feature","properties":{"title":"ES Coffee Shop"},"geometry":{"type":"Point","coordinates":[-80.54276898,43.46829626]}},{"type":"Feature","properties":{"title":"William's Fresh Café"},"geometry":{"type":"Point","coordinates":[-80.54345026,43.4681875]}},{"type":"Feature","properties":{"title":"Common Ground"},"geometry":{"type":"Point","coordinates":[-80.54500326,43.4664105]}},{"type":"Feature","properties":{"title":"The Funcken Café"},"geometry":{"type":"Point","coordinates":[-80.54565726,43.4690695]}},{"type":"Feature","properties":{"title":"Arts Student Union"},"geometry":{"type":"Point","coordinates":[-80.54193226,43.4688435]}},{"type":"Feature","properties":{"title":"Watson's Eatery"},"geometry":{"type":"Point","coordinates":[-80.54630526,43.4677965]}},{"type":"Feature","properties":{"title":"Starbucks"},"geometry":{"type":"Point","coordinates":[-80.54349326,43.4708355]}},{"type":"Feature","properties":{"title":"Watson's Mug"},"geometry":{"type":"Point","coordinates":[-80.54635168,43.4679187]}},{"type":"Feature","properties":{"title":"Science C & D"},"geometry":{"type":"Point","coordinates":[-80.54307426,43.4709455]}},{"type":"Feature","properties":{"title":"PAS Lounge"},"geometry":{"type":"Point","coordinates":[-80.54258226,43.4671465]}},{"type":"Feature","properties":{"title":"St. Jerome's Cafeteria"},"geometry":{"type":"Point","coordinates":[-80.54550526,43.4692215]}},{"type":"Feature","properties":{"title":"Tim Horton's"},"geometry":{"type":"Point","coordinates":[-80.54018564,43.46913035]}},{"type":"Feature","properties":{"title":"Graduate House"},"geometry":{"type":"Point","coordinates":[-80.54083426,43.4697795]}},{"type":"Feature","properties":{"title":"Waterloo Engineering Society C&D"},"geometry":{"type":"Point","coordinates":[-80.53924027,43.4707095]}},{"type":"Feature","properties":{"title":"CEIT cafe"},"geometry":{"type":"Point","coordinates":[-80.54206126,43.4715775]}},{"type":"Feature","properties":{"title":"mudie's"},"geometry":{"type":"Point","coordinates":[-80.54994626,43.4716475]}},{"type":"Feature","properties":{"title":"Tim Hortons"},"geometry":{"type":"Point","coordinates":[-80.54519826,43.4713395]}},{"type":"Feature","properties":{"title":"Second Cup"},"geometry":{"type":"Point","coordinates":[-80.53583727,43.4723605]}},{"type":"Feature","properties":{"title":"Williams Fresh Cafe"},"geometry":{"type":"Point","coordinates":[-80.53865327,43.4722665]}},{"type":"Feature","properties":{"title":"Pastry Plus"},"geometry":{"type":"Point","coordinates":[-80.54344023,43.46960175]}},{"type":"Feature","properties":{"title":"Browsers Cafe"},"geometry":{"type":"Point","coordinates":[-80.54227826,43.4668595]}},{"type":"Feature","properties":{"title":"Modern Languages Cafeteria"},"geometry":{"type":"Point","coordinates":[-80.54266926,43.4687945]}},{"type":"Feature","properties":{"title":"Pastry Plud"},"geometry":{"type":"Point","coordinates":[-80.54227826,43.4668595]}},{"type":"Feature","properties":{"title":"Common Ground"},"geometry":{"type":"Point","coordinates":[-80.54483926,43.4663635]}},{"type":"Feature","properties":{"title":"common ground"},"geometry":{"type":"Point","coordinates":[-80.54480526,43.4668015]}},{"type":"Feature","properties":{"title":"Watson's eatery"},"geometry":{"type":"Point","coordinates":[-80.54606426,43.4675985]}},{"type":"Feature","properties":{"title":"Browsers cafe"},"geometry":{"type":"Point","coordinates":[-80.54208226,43.4697345]}},{"type":"Feature","properties":{"title":"Tim Hortons"},"geometry":{"type":"Point","coordinates":[-80.54271226,43.4689095]}},{"type":"Feature","properties":{"title":"DC Tim Hortons Express"},"geometry":{"type":"Point","coordinates":[-80.54229668,43.47261009]}},{"type":"Feature","properties":{"title":"DC Tim Hortons"},"geometry":{"type":"Point","coordinates":[-80.54267523,43.47294087]}},{"type":"Feature","properties":{"title":"Brubakers SLC"},"geometry":{"type":"Point","coordinates":[-80.54540225,43.47202278]}},{"type":"Feature","properties":{"title":"Starbucks BMH"},"geometry":{"type":"Point","coordinates":[-80.54556224,43.47350684]}},{"type":"Feature","properties":{"title":"REVelation REV"},"geometry":{"type":"Point","coordinates":[-80.55425088,43.47030098]}},{"type":"Feature","properties":{"title":"Liquid Assets HH"},"geometry":{"type":"Point","coordinates":[-80.54142631,43.46837487]}}]}